Link_ID,Record_ID,Street_Segment_Name,Borough,Owner,Transcom_ID,Current_Speed_MPH,Travel_Time_Seconds,Data_As_Of,Segment_Status_Code,Segment_Status_Label,Speed_Category,Point_Count,Start_Latitude,Start_Longitude,End_Latitude,End_Longitude,Mid_Latitude,Mid_Longitude,Link_Points
4616247,126,BE N Castle Hill Avenue - Griswold Ave,Bronx,NYC_DOT_LIC,4616247,44.74,166.0,2017-05-05T10:26:51.000,0,Normal,Free flow,13,40.827161,-73.849930,40.834301,-73.825710,40.829200,-73.835541,"40.827161,-73.849930 40.827710,-73.846710 40.828410,-73.843471 40.828690,-73.841330 40.828790,-73.838600 40.828910,-73.837000 40.829200,-73.835541 40.829680,-73.834031 40.830500,-73.832390 40.832110,-73.829830 40.833050,-73.828260 40.833660,-73.826930 40.834301,-73.825710"
4616246,129,BE N STRATFORD AVENUE - CASTLE HILL AVE,Bronx,NYC_DOT_LIC,4616246,49.71,92.0,2017-05-05T10:26:51.000,0,Normal,Free flow,7,40.824071,-73.874311,40.827181,-73.849940,40.825360,-73.864260,"40.824071,-73.874311 40.824700,-73.869590 40.825191,-73.865960 40.825360,-73.864260 40.825870,-73.859610 40.826601,-73.854240 40.827181,-73.849940"
4616260,137,BE S CASTLE HILL AVENUE - STRATFORD AVENUE,Bronx,NYC_DOT_LIC,4616260,52.2,75.0,2017-04-05T01:33:36.000,0,Normal,Free flow,6,40.824201,-73.874361,40.827310,-73.849980,40.825910,-73.860311,"40.824201,-73.874361 40.824980,-73.868411 40.825400,-73.865281 40.825910,-73.860311 40.826691,-73.854581 40.827310,-73.849980"
4616261,142,BE S Griswold - Castle Hill Avenue,Bronx,NYC_DOT_LIC,4616261,49.71,150.0,2017-05-05T10:21:49.000,0,Normal,Free flow,12,40.830370,-73.850620,40.830091,-73.833971,40.828980,-73.842891,"40.830370,-73.850620 40.829960,-73.849251 40.829461,-73.847771 40.829041,-73.846450 40.828810,-73.845230 40.828810,-73.844191 40.828980,-73.842891 40.829860,-73.838141 40.830050,-73.836841 40.830060,-73.835780 40.830021,-73.834511 40.830091,-73.833971"
4616252,159,BRP N WATSON AVENUE - FORDHAM ROAD,Bronx,NYC_DOT_LIC,4616252,45.98,119.0,2017-05-05T10:21:49.000,0,Normal,Free flow,12,40.856351,-73.872330,40.829850,-73.873130,40.839610,-73.872730,"40.856351,-73.872330 40.852190,-73.871371 40.850070,-73.871110 40.846940,-73.871150 40.845960,-73.871311 40.842400,-73.872020 40.839610,-73.872730 40.836240,-73.873720 40.834951,-73.873900 40.833361,-73.873831 40.831970,-73.873681 40.829850,-73.873130"
4616266,160,BRP S FORDHAM ROAD - WATSON AVENUE,Bronx,NYC_DOT_LIC,4616266,45.98,120.0,2017-05-05T10:21:49.000,0,Normal,Free flow,12,40.856280,-73.872540,40.829840,-73.873331,40.839640,-73.872910,"40.856280,-73.872540 40.852180,-73.871581 40.850171,-73.871451 40.848330,-73.871491 40.845851,-73.871520 40.842390,-73.872261 40.839640,-73.872910 40.836300,-73.873900 40.834951,-73.874080 40.833390,-73.874070 40.831970,-73.873921 40.829840,-73.873331"
4616305,165,BWB N Toll Plaza - HRP N Lafayatte Ave,Bronx,NYC_DOT_LIC,4616305,49.71,53.0,2017-05-05T10:21:49.000,0,Normal,Free flow,6,40.814770,-73.836290,40.825130,-73.836240,40.820240,-73.835890,"40.814770,-73.836290 40.816110,-73.836270 40.817840,-73.836010 40.820240,-73.835890 40.823961,-73.836070 40.825130,-73.836240"
4456496,168,BWB S Toll Plaza - Queens Anchorage,Bronx,NYC_DOT_LIC,4456496,32.93,141.0,2017-05-05T10:25:54.000,0,Normal,Moderate traffic,8,40.814761,-73.836680,40.799250,-73.828251,40.811840,-73.836121,"40.814761,-73.836680 40.813540,-73.836590 40.813050,-73.836500 40.812450,-73.836380 40.811840,-73.836121 40.811100,-73.835620 40.804931,-73.831821 40.799250,-73.828251"
4616310,172,CBE AMSTERDAM AVE (L/LVL) - MORRIS AVE,Bronx,NYC_DOT_LIC,4616310,11.18,368.0,2017-05-05T10:21:49.000,0,Normal,Heavy congestion,9,40.824950,-73.836211,40.797150,-73.826570,40.815550,-73.836280,"40.824950,-73.836211 40.823670,-73.836020 40.820261,-73.835941 40.818880,-73.835951 40.815550,-73.836280 40.812750,-73.836270 40.812431,-73.836211 40.811390,-73.835710 40.797150,-73.826570"
4616309,177,CBE E AMSTERDAM AVE(U/LVL) - MORRIS AVE,Bronx,NYC_DOT_LIC,4616309,8.7,459.0,2017-05-05T10:21:49.000,0,Normal,Severe congestion,11,40.846430,-73.932130,40.845030,-73.909371,40.844780,-73.922460,"40.846430,-73.932130 40.845890,-73.930331 40.845160,-73.927390 40.844780,-73.925401 40.844711,-73.924120 40.844780,-73.922460 40.844891,-73.920450 40.845110,-73.915340 40.845131,-73.911940 40.845110,-73.910811 40.845030,-73.909371"
4616297,178,CBE E CASTLE HILL AVE - BE N WATERBURY AVE,Bronx,NYC_DOT_LIC,4616297,45.98,178.0,2017-05-05T10:21:49.000,0,Normal,Free flow,12,40.830220,-73.850641,40.829190,-73.835480,40.827991,-73.843911,"40.830220,-73.850641 40.829530,-73.848401 40.829100,-73.847491 40.828360,-73.845900 40.828141,-73.845240 40.828030,-73.844641 40.827991,-73.843911 40.828040,-73.842981 40.828191,-73.841761 40.828630,-73.838440 40.828870,-73.836730 40.829190,-73.835480"
4616253,184,CBE E TAYLOR AVENUE - CASTLE HILL AVENUE,Bronx,NYC_DOT_LIC,4616253,52.2,49.0,2017-05-05T10:21:49.000,0,Normal,Free flow,8,40.834720,-73.865930,40.830111,-73.850731,40.830170,-73.850690,"40.834720,-73.865930 40.833570,-73.861990 40.832730,-73.859200 40.831200,-73.854090 40.830170,-73.850690 40.830150,-73.850710 40.830130,-73.850731 40.830111,-73.850731"
4616267,185,CBE W CASTLE HILL AVENUE - TAYLOR AVENUE,Bronx,NYC_DOT_LIC,4616267,9.94,255.0,2017-05-05T10:21:49.000,0,Normal,Severe congestion,10,40.830420,-73.850811,40.835041,-73.866311,40.833520,-73.861130,"40.830420,-73.850811 40.831560,-73.854671 40.832380,-73.857341 40.833120,-73.859891 40.833350,-73.860460 40.833520,-73.861130 40.833741,-73.862011 40.834150,-73.863330 40.834521,-73.864580 40.835041,-73.866311"
4620315,186,CBE W L/LE V AMSTERDAM AVE - I 95 S LOC LNS,Bronx,PA-GWBridge,4620315,1.86,3183.0,2017-05-05T10:26:49.000,0,Normal,Severe congestion,13,40.846670,-73.931880,40.853621,-73.961920,40.851271,-73.950370,"40.846670,-73.931880 40.847331,-73.933501 40.848710,-73.936901 40.849350,-73.939880 40.849620,-73.941750 40.850120,-73.944620 40.851271,-73.950370 40.851720,-73.952830 40.852100,-73.955150 40.852950,-73.959570 40.853290,-73.960610 40.853520,-73.961420 40.853621,-73.961920"
4620332,190,CBE W MORRIS AVE - GWB W AMSTERDAM AVE (L/LVL),Bronx,PA-GWBridge,4620332,14.91,284.0,2017-05-05T10:26:50.000,0,Normal,Heavy congestion,9,40.846710,-73.931941,40.845160,-73.909371,40.844860,-73.924710,"40.846710,-73.931941 40.846031,-73.930181 40.845390,-73.927530 40.845600,-73.925891 40.844860,-73.924710 40.844880,-73.923270 40.845131,-73.918850 40.845271,-73.913131 40.845160,-73.909371"
4620331,191,CBE W MORRIS AVE - GWB W AMSTERDAM AVE (U/LVL),Bronx,PA-GWBridge,4620331,14.91,288.0,2017-05-05T10:26:50.000,0,Normal,Heavy congestion,10,40.846541,-73.932021,40.845201,-73.910820,40.844821,-73.923691,"40.846541,-73.932021 40.846110,-73.930750 40.845271,-73.927260 40.844960,-73.925931 40.844821,-73.924811 40.844821,-73.923691 40.845010,-73.920410 40.845230,-73.915560 40.845240,-73.911980 40.845201,-73.910820"
4620310,195,CBE W U/LEV AMSTERDAM AVE - I95 S EXP LNS,Bronx,PA-GWBridge,4620310,29.2,280.0,2017-05-05T10:26:49.000,0,Normal,Moderate traffic,12,40.846530,-73.932031,40.853460,-73.961481,40.851160,-73.950370,"40.846530,-73.932031 40.847171,-73.933591 40.848590,-73.936960 40.849211,-73.939901 40.849550,-73.941791 40.850040,-73.944611 40.851160,-73.950370 40.851610,-73.952851 40.852031,-73.955211 40.852910,-73.959611 40.853241,-73.960660 40.853460,-73.961481"
4616250,295,HRP N LAFAYETTE AVENUE - E TREMONT AVENUE,Bronx,NYC_DOT_LIC,4616250,50.95,74.0,2017-05-05T10:26:51.000,0,Normal,Free flow,7,40.840640,-73.838310,40.824950,-73.836211,40.832610,-73.838040,"40.840640,-73.838310 40.838810,-73.838530 40.834630,-73.838390 40.832610,-73.838040 40.830660,-73.837521 40.828070,-73.836680 40.824950,-73.836211"
4456498,298,HRP S Lafayette Ave - BWB S Toll Plaza,Bronx,NYC_DOT_LIC,4456498,1.24,1466.0,2017-05-05T10:25:54.000,0,Normal,Severe congestion,7,40.825120,-73.836370,40.814790,-73.836680,40.821451,-73.836211,"40.825120,-73.836370 40.824420,-73.836290 40.822850,-73.836221 40.821451,-73.836211 40.818921,-73.836360 40.815260,-73.836690 40.814790,-73.836680"
4616228,354,I-87 NYST S Exit 1 - MDE S Van Cortlandt Park,Bronx,NYC_DOT_LIC,4616228,44.12,158.0,2014-03-21T15:24:27.000,0,Normal,Free flow,12,40.885940,-73.896760,40.907060,-73.878060,40.890750,-73.886441,"40.885940,-73.896760 40.886980,-73.895280 40.887620,-73.894070 40.888451,-73.891850 40.889191,-73.889041 40.889760,-73.887730 40.890750,-73.886441 40.893820,-73.883351 40.896621,-73.880650 40.897850,-73.879821 40.899281,-73.879331 40.907060,-73.878060"
4616255,338,MDE N RFK Bridge - 142nd St,Bronx,NYC_DOT_LIC,4616255,8.7,533.0,2017-05-05T10:21:49.000,0,Normal,Severe congestion,13,40.813760,-73.931280,40.803411,-73.915000,40.808260,-73.927901,"40.813760,-73.931280 40.812721,-73.931600 40.812110,-73.931690 40.811480,-73.931610 40.810910,-73.931261 40.810440,-73.930790 40.808260,-73.927901 40.807720,-73.926900 40.806530,-73.923971 40.805030,-73.920240 40.803791,-73.917471 40.803600,-73.916931 40.803411,-73.915000"
4575278,339,MDE N VAN CORTLAND PARK - NYST N EXIT 1 (MP.48),Bronx,NYC Thruway Tarrytown,4575278,37.9,234.0,2014-03-21T15:23:00.000,0,Normal,Free flow,12,40.885940,-73.896490,40.892180,-73.884670,40.889310,-73.888321,"40.885940,-73.896490 40.886810,-73.895261 40.887350,-73.894291 40.888051,-73.892640 40.888431,-73.891340 40.888930,-73.889351 40.889310,-73.888321 40.889751,-73.887490 40.890190,-73.886820 40.890730,-73.886181 40.891280,-73.885540 40.892180,-73.884670"
4620330,344,MDE S HARLEM RIVER PARK - GWB W AMSTERDAM AVENUE LOWER LEVEL,Bronx,NYC_DOT_LIC,4620330,16.16,281.0,2017-05-05T10:26:50.000,0,Normal,Heavy congestion,13,40.855130,-73.918650,40.845390,-73.925320,40.844261,-73.927411,"40.855130,-73.918650 40.852630,-73.920881 40.850000,-73.923291 40.846530,-73.926280 40.845250,-73.927030 40.844540,-73.927421 40.844261,-73.927411 40.844000,-73.927191 40.843870,-73.926810 40.843960,-73.926230 40.844380,-73.925340 40.844900,-73.925030 40.845390,-73.925320"
4620314,345,MDE S HARLEM RIVER PARK - GWB W AMSTERDAM AVENUE UPPER LEVEL,Bronx,NYC_DOT_LIC,4620314,14.91,285.0,2017-05-05T10:26:49.000,0,Normal,Heavy congestion,13,40.855260,-73.918591,40.844511,-73.920000,40.844950,-73.926961,"40.855260,-73.918591 40.852660,-73.920850 40.850040,-73.923270 40.847370,-73.925410 40.846080,-73.926381 40.845340,-73.926841 40.844950,-73.926961 40.844670,-73.926850 40.844540,-73.926680 40.844370,-73.926400 40.844290,-73.926050 40.844351,-73.925680 40.844511,-73.920000"
4616257,148,BQE N ATLANTIC AVENUE - LEONARD STREET,Brooklyn,NYC_DOT_LIC,4616257,0.0,0.0,2017-04-27T14:07:03.000,-101,No recent speed status,Severe congestion,12,40.691530,-73.999110,40.700790,-73.994881,40.697371,-73.997410,"40.691530,-73.999110 40.692261,-73.999370 40.692891,-73.999370 40.693341,-73.999250 40.694060,-73.998980 40.695000,-73.998530 40.697371,-73.997410 40.699431,-73.996420 40.699770,-73.996200 40.700141,-73.995840 40.700450,-73.995421 40.700790,-73.994881"
4616235,153,BQE N LEONARD STREET - 46TH STREET,Brooklyn,NYC_DOT_LIC,4616235,29.83,234.0,2017-05-05T10:26:51.000,0,Normal,Moderate traffic,12,40.691530,-73.999110,40.700790,-73.994881,40.697371,-73.997410,"40.691530,-73.999110 40.692261,-73.999370 40.692891,-73.999370 40.693341,-73.999250 40.694060,-73.998980 40.695000,-73.998530 40.697371,-73.997410 40.699431,-73.996420 40.699770,-73.996200 40.700141,-73.995840 40.700450,-73.995421 40.700790,-73.994881"
4616229,154,BQE S - GOW S ALTANTIC AVENUE - 9TH STREET,Brooklyn,NYC_DOT_LIC,4616229,42.25,164.0,2017-05-05T10:26:51.000,0,Normal,Free flow,12,40.675741,-74.001260,40.689720,-73.998800,40.680030,-74.003441,"40.675741,-74.001260 40.676520,-74.001800 40.678170,-74.003221 40.678640,-74.003471 40.679250,-74.003600 40.679600,-74.003580 40.680030,-74.003441 40.680621,-74.003161 40.681530,-74.002730 40.687260,-73.999951 40.689240,-73.998990 40.689720,-73.998800"
4616232,155,BQE S 46TH STREET - LEONARD STREET,Brooklyn,NYC_DOT_LIC,4616232,11.81,580.0,2017-05-05T10:26:51.000,0,Normal,Heavy congestion,13,40.717720,-73.948310,40.726120,-73.930000,40.723320,-73.939170,"40.717720,-73.948310 40.718620,-73.946851 40.720160,-73.944320 40.721481,-73.942051 40.722120,-73.941121 40.722680,-73.940340 40.723320,-73.939170 40.724110,-73.937740 40.724370,-73.937211 40.724720,-73.935910 40.725460,-73.933000 40.725740,-73.932121 40.726120,-73.930000"
4616271,157,BQE S LEONARD STREET - ATLANTIC AVENUE,Brooklyn,NYC_DOT_LIC,4616271,0.0,0.0,2017-04-27T14:07:03.000,-101,No recent speed status,Severe congestion,13,40.691580,-73.999290,40.701160,-73.990000,40.697410,-73.997481,"40.691580,-73.999290 40.692210,-73.999531 40.692860,-73.999520 40.693350,-73.999361 40.694110,-73.999070 40.695080,-73.998591 40.697410,-73.997481 40.699590,-73.996440 40.699831,-73.996271 40.700220,-73.995900 40.700530,-73.995471 40.700880,-73.994900 40.701160,-73.990000"
4616318,257,GOW N 7TH AVENUE - 9TH STREET,Brooklyn,NYC_DOT_LIC,4616318,11.18,1132.0,2017-05-05T10:21:49.000,0,Normal,Heavy congestion,12,40.633391,-74.015860,40.640241,-74.021561,40.637691,-74.020311,"40.633391,-74.015860 40.634000,-74.015921 40.634450,-74.016050 40.634930,-74.016300 40.635490,-74.016831 40.636340,-74.018100 40.637691,-74.020311 40.638170,-74.020930 40.638600,-74.021270 40.639160,-74.021550 40.639710,-74.021630 40.640241,-74.021561"
4616220,258,GOW N 92ND STREET - 7TH AVENUE,Brooklyn,NYC_DOT_LIC,4616220,29.83,141.0,2017-05-05T10:26:51.000,0,Normal,Moderate traffic,9,40.616241,-74.026120,40.633360,-74.015860,40.625790,-74.018590,"40.616241,-74.026120 40.619230,-74.023610 40.623620,-74.019831 40.624841,-74.019061 40.625790,-74.018590 40.627900,-74.017721 40.630490,-74.016760 40.632390,-74.016061 40.633360,-74.015860"
4616223,259,GOW N 9TH STREET - ATLANTIC AVENUE,Brooklyn,NYC_DOT_LIC,4616223,11.18,330.0,2017-05-05T10:26:51.000,0,Normal,Heavy congestion,11,40.676430,-74.001241,40.689720,-73.990000,40.680010,-74.003320,"40.676430,-74.001241 40.677241,-74.001741 40.678360,-74.002531 40.679250,-74.003310 40.679570,-74.003410 40.680010,-74.003320 40.680581,-74.003031 40.681470,-74.002600 40.687200,-73.999811 40.689221,-73.998850 40.689720,-73.990000"
4616226,261,GOW S 7TH AVENUE - 92ND STREET,Brooklyn,NYC_DOT_LIC,4616226,47.85,90.0,2017-05-05T10:26:51.000,0,Normal,Free flow,9,40.616320,-74.026300,40.633231,-74.016151,40.625830,-74.018741,"40.616320,-74.026300 40.619280,-74.023750 40.623721,-74.019951 40.624800,-74.019250 40.625830,-74.018741 40.627951,-74.017891 40.630650,-74.016980 40.632370,-74.016321 40.633231,-74.016151"
4616319,262,GOW S 9TH STREET - 7TH AVENUE,Brooklyn,NYC_DOT_LIC,4616319,1.24,6754.0,2017-05-04T20:11:50.000,0,Normal,Severe congestion,13,40.633231,-74.016151,40.641030,-74.021430,40.637570,-74.020460,"40.633231,-74.016151 40.633910,-74.016130 40.634350,-74.016241 40.634850,-74.016501 40.635330,-74.016940 40.636220,-74.018270 40.637570,-74.020460 40.638030,-74.021071 40.638500,-74.021460 40.639080,-74.021730 40.639670,-74.021850 40.640360,-74.021720 40.641030,-74.021430"
4763657,263,GOW S VNB W 92ND STREET - BKLYN GANTRY LOWER LEVEL,Brooklyn,Verrazano-Narrows-Bridge,4763657,39.77,53.0,2017-05-05T10:25:54.000,0,Normal,Free flow,8,40.608460,-74.039330,40.616350,-74.026390,40.612790,-74.030031,"40.608460,-74.039330 40.610780,-74.032070 40.611100,-74.031540 40.611580,-74.031051 40.612790,-74.030031 40.613711,-74.029030 40.614411,-74.028201 40.616350,-74.026390"
4763655,264,GOW S VNB W 92ND STREET - BKLYN GANTRY UPPER LEVEL,Brooklyn,Verrazano-Narrows-Bridge,4763655,42.87,50.0,2017-05-05T10:25:54.000,0,Normal,Free flow,8,40.608380,-74.039301,40.616311,-74.026240,40.612720,-74.029920,"40.608380,-74.039301 40.610711,-74.032020 40.611051,-74.031440 40.611501,-74.030940 40.612720,-74.029920 40.613440,-74.028920 40.614231,-74.028030 40.616311,-74.026240"
4763656,410,VNB E SI GANTRY LOWER LEVEL - BROOLKYN GANTRY LOWER LEVEL,Brooklyn,Verrazano-Narrows-Bridge,4763656,44.12,106.0,2017-05-05T10:25:54.000,0,Normal,Free flow,5,40.603970,-74.052281,40.608211,-74.039190,40.607370,-74.041820,"40.603970,-74.052281 40.604651,-74.050210 40.607370,-74.041820 40.607950,-74.039971 40.608211,-74.039190"
4763652,411,VNB E SI GANTRY UPPER LEVEL - BROOKLYN GANTRY UPPER LEVEL,Brooklyn,Verrazano-Narrows-Bridge,4763652,39.77,117.0,2017-05-05T10:25:54.000,0,Normal,Free flow,5,40.604041,-74.052321,40.608271,-74.039211,40.607430,-74.041851,"40.604041,-74.052321 40.604700,-74.050301 40.607430,-74.041851 40.608031,-74.039980 40.608271,-74.039211"
4616218,412,VNB E-GOWANUS N BROOKLYN GANTRY LOWER LEVEL - 92ND STREET,Brooklyn,NYC_DOT_LIC,4616218,44.74,48.0,2017-05-05T10:26:51.000,0,Normal,Free flow,8,40.608170,-74.039261,40.616201,-74.026020,40.611710,-74.029600,"40.608170,-74.039261 40.610091,-74.033370 40.610590,-74.031760 40.611210,-74.030280 40.611710,-74.029600 40.612970,-74.028641 40.613900,-74.027831 40.616201,-74.026020"
4616219,413,VNB E-GOWANUS N BROOKLYN GANTRY UPPER LEVEL - 92ND STREET,Brooklyn,NYC_DOT_LIC,4616219,39.77,54.0,2017-05-05T10:26:51.000,0,Normal,Free flow,8,40.608271,-74.039261,40.616241,-74.026150,40.611780,-74.029680,"40.608271,-74.039261 40.610181,-74.033360 40.610671,-74.031781 40.611370,-74.030251 40.611780,-74.029680 40.613070,-74.028731 40.614040,-74.028011 40.616241,-74.026150"
4763651,416,VNB W BROOKLYN GANTRY LOWER LEVEL - SI GANTRY LOWER LEVEL,Brooklyn,Verrazano-Narrows-Bridge,4763651,42.25,111.0,2017-05-05T10:25:54.000,0,Normal,Free flow,6,40.604250,-74.052331,40.608460,-74.039330,40.608231,-74.040040,"40.604250,-74.052331 40.604870,-74.050370 40.607620,-74.041901 40.608231,-74.040040 40.608321,-74.039770 40.608460,-74.039330"
4763649,417,VNB W BROOKLYN GANTRY UPPER LEVEL - SI GANTRY UPPER LEVEL,Brooklyn,Verrazano-Narrows-Bridge,4763649,47.22,99.0,2017-05-05T10:25:54.000,0,Normal,Free flow,5,40.604140,-74.052411,40.608380,-74.039240,40.607530,-74.041891,"40.604140,-74.052411 40.604790,-74.050351 40.607530,-74.041891 40.608100,-74.040011 40.608380,-74.039240"
4616337,1,11th ave n ganservoort - 12th ave @ 40th st,Manhattan,NYC_DOT_LIC,4616337,8.08,645.0,2017-05-05T10:21:49.000,0,Normal,Severe congestion,12,40.740470,-74.009251,40.760030,-74.002631,40.749710,-74.008190,"40.740470,-74.009251 40.741370,-74.008930 40.743171,-74.008591 40.746230,-74.007970 40.748120,-74.007651 40.748701,-74.007691 40.749710,-74.008190 40.750480,-74.008321 40.751611,-74.007890 40.753750,-74.007040 40.757210,-74.004630 40.760030,-74.002631"
4616325,2,11th ave s ganservoort - west st @ spring st,Manhattan,NYC_DOT_LIC,4616325,21.13,156.0,2017-05-05T10:21:49.000,0,Normal,Moderate traffic,6,40.739330,-74.010040,40.726190,-74.011131,40.734600,-74.010260,"40.739330,-74.010040 40.738950,-74.010120 40.737600,-74.010021 40.734600,-74.010260 40.729120,-74.010781 40.726190,-74.011131"
4616338,4,12th Ave N 40th - 57th St,Manhattan,NYC_DOT_LIC,4616338,9.94,300.0,2017-05-05T10:21:49.000,0,Normal,Severe congestion,8,40.760700,-74.002141,40.771511,-73.994200,40.769300,-73.994801,"40.760700,-74.002141 40.763350,-73.999271 40.764910,-73.998050 40.766741,-73.996681 40.769300,-73.994801 40.769961,-73.994521 40.771010,-73.994380 40.771511,-73.994200"
4616323,106,12th Ave S 57th St - 45th St,Manhattan,NYC_DOT_LIC,4616323,13.05,171.0,2017-05-05T10:21:49.000,0,Normal,Heavy congestion,13,40.771580,-73.994441,40.765470,-73.997900,40.769541,-73.994960,"40.771580,-73.994441 40.771300,-73.994550 40.770850,-73.994670 40.769970,-73.994810 40.770160,-73.994770 40.769860,-73.994831 40.769541,-73.994960 40.769341,-73.995080 40.768311,-73.995800 40.768311,-73.995800 40.766230,-73.997330 40.766230,-73.997330 40.765470,-73.997900"
4616324,3,12th ave @ 45th - 11 ave ganservoort st,Manhattan,NYC_DOT_LIC,4616324,8.7,677.0,2017-05-05T10:21:49.000,0,Normal,Severe congestion,13,40.763750,-73.999191,40.741140,-74.000000,40.755760,-74.006010,"40.763750,-73.999191 40.763521,-73.999350 40.762080,-74.001360 40.759850,-74.003060 40.757750,-74.004570 40.757750,-74.004570 40.755760,-74.006010 40.754490,-74.006921 40.753840,-74.007241 40.754150,-74.007120 40.750280,-74.008480 40.748330,-74.007771 40.741140,-74.000000"
4456502,119,BBT E Manhattan Portal - Toll Plaza,Manhattan,MTA Bridges & Tunnels,4456502,3.73,1070.0,2017-05-05T09:57:54.000,0,Normal,Severe congestion,13,40.706310,-74.015010,40.679800,-74.004160,40.700260,-74.015410,"40.706310,-74.015010 40.705380,-74.015280 40.704960,-74.015460 40.703740,-74.015740 40.703040,-74.015820 40.701260,-74.015740 40.700260,-74.015410 40.694080,-74.013040 40.685560,-74.007790 40.683630,-74.006680 40.682130,-74.006020 40.681160,-74.005320 40.679800,-74.004160"
4616344,122,BBT Manhattan Portal inbound - West St N Watts St,Manhattan,NYC_DOT_LIC,4616344,13.05,422.0,2015-12-08T15:24:35.000,0,Normal,Heavy congestion,12,40.707390,-74.015590,40.713981,-74.013551,40.711130,-74.014491,"40.707390,-74.015590 40.707801,-74.015490 40.708530,-74.015220 40.709101,-74.014991 40.709790,-74.014721 40.710470,-74.014631 40.711130,-74.014491 40.712020,-74.014261 40.712951,-74.014010 40.713360,-74.013900 40.713640,-74.013781 40.713981,-74.013551"
4616345,123,BBT Manhattan Portal inbound - West St S Battery Place,Manhattan,NYC_DOT_LIC,4616345,27.96,100.0,2015-12-08T15:24:35.000,0,Normal,Moderate traffic,5,40.707380,-74.015580,40.704760,-74.016520,40.706371,-74.016040,"40.707380,-74.015580 40.706690,-74.015900 40.706371,-74.016040 40.705100,-74.016430 40.704760,-74.016520"
4456501,124,BBT W Toll Plaza - Manhattan Portal,Manhattan,MTA Bridges & Tunnels,4456501,34.18,190.0,2016-12-28T09:06:29.000,0,Normal,Moderate traffic,10,40.680360,-74.004410,40.706090,-74.014680,40.700280,-74.015290,"40.680360,-74.004410 40.682200,-74.005720 40.683700,-74.006440 40.685630,-74.007570 40.694120,-74.012880 40.700280,-74.015290 40.701210,-74.015600 40.703434,-74.015610 40.704990,-74.015190 40.706090,-74.014680"
4616342,145,BKN Bridge Manhattan Side - FDR N Catherine Slip,Manhattan,NYC_DOT_LIC,4616342,21.13,121.0,2017-05-05T10:21:51.000,0,Normal,Moderate traffic,6,40.708110,-73.999440,40.709140,-73.995940,40.708860,-73.997751,"40.708110,-73.999440 40.708470,-73.998840 40.708680,-73.998331 40.708860,-73.997751 40.709000,-73.997020 40.709140,-73.995940"
4616339,149,BQE N Atlantic Ave - BKN Bridge Manhattan Side,Manhattan,NYC_DOT_LIC,4616339,22.99,312.0,2017-05-05T10:21:49.000,0,Normal,Moderate traffic,12,40.691600,-73.999150,40.698871,-73.996721,40.694931,-73.998620,"40.691600,-73.999150 40.692360,-73.999390 40.692720,-73.999411 40.693280,-73.999290 40.694050,-73.999001 40.694461,-73.998831 40.694931,-73.998620 40.695430,-73.998360 40.695920,-73.998130 40.696750,-73.997720 40.697751,-73.997251 40.698871,-73.996721"
4616340,150,BQE N Atlantic Ave - MAN Bridge Manhattan Side,Manhattan,NYC_DOT_LIC,4616340,13.05,709.0,2017-05-05T10:21:49.000,0,Normal,Heavy congestion,9,40.701641,-73.991121,40.700290,-73.985211,40.701150,-73.987461,"40.701641,-73.991121 40.701580,-73.990330 40.701440,-73.989320 40.701230,-73.987970 40.701150,-73.987461 40.700940,-73.986521 40.700730,-73.985921 40.700550,-73.985581 40.700290,-73.985211"
4456450,213,FDR N - TBB E 116TH STREET - MANHATTAN TRUSS,Manhattan,MTA Bridges & Tunnels,4456450,29.2,82.0,2017-05-05T10:25:54.000,0,Normal,Moderate traffic,10,40.800690,-73.928780,40.800181,-73.930151,40.801140,-73.931261,"40.800690,-73.928780 40.801301,-73.930181 40.801410,-73.930570 40.801430,-73.930840 40.801330,-73.931060 40.801140,-73.931261 40.800840,-73.931271 40.800670,-73.931150 40.800521,-73.930951 40.800181,-73.930151"
4616329,215,FDR N 25th - 63rd St,Manhattan,NYC_DOT_LIC,4616329,29.83,228.0,2017-05-05T10:21:49.000,0,Normal,Moderate traffic,12,40.736901,-73.974651,40.746520,-73.969290,40.742850,-73.972130,"40.736901,-73.974651 40.738680,-73.973391 40.738970,-73.973230 40.739550,-73.972980 40.741530,-73.972470 40.742341,-73.972290 40.742850,-73.972130 40.743380,-73.971871 40.744080,-73.971410 40.744671,-73.971030 40.745561,-73.970301 40.746520,-73.969290"
4616328,217,FDR N Catherine Slip - 25th St,Manhattan,NYC_DOT_LIC,4616328,16.78,585.0,2017-05-05T10:21:49.000,0,Normal,Heavy congestion,12,40.711410,-73.978660,40.723280,-73.973801,40.717240,-73.975231,"40.711410,-73.978660 40.712000,-73.977930 40.712661,-73.977511 40.713790,-73.976931 40.715090,-73.976251 40.716400,-73.975600 40.717240,-73.975231 40.718230,-73.974970 40.720060,-73.974710 40.721580,-73.974530 40.722351,-73.974331 40.723280,-73.973801"
4616333,221,FDR S 25th St - Catherine Slip,Manhattan,NYC_DOT_LIC,4616333,42.25,243.0,2017-05-05T10:21:49.000,0,Normal,Free flow,12,40.736971,-73.974770,40.729660,-73.972181,40.731711,-73.974030,"40.736971,-73.974770 40.736510,-73.975011 40.735950,-73.975060 40.735120,-73.974911 40.734061,-73.974611 40.732730,-73.974281 40.731711,-73.974030 40.731370,-73.973851 40.730960,-73.973590 40.730670,-73.973280 40.730190,-73.972671 40.729660,-73.972181"
4616332,222,FDR S 63rd - 25th St,Manhattan,NYC_DOT_LIC,4616332,29.83,225.0,2017-05-05T10:21:49.000,0,Normal,Moderate traffic,13,40.760690,-73.956791,40.749200,-73.967000,40.754851,-73.962300,"40.760690,-73.956791 40.760161,-73.957510 40.759410,-73.958200 40.758081,-73.959251 40.756740,-73.960340 40.755940,-73.960941 40.754851,-73.962300 40.753500,-73.963470 40.753080,-73.963941 40.752720,-73.964190 40.751710,-73.965180 40.750410,-73.966250 40.749200,-73.967000"
4616341,223,FDR S Catherine Slip - BKN Bridge Manhattan Side,Manhattan,NYC_DOT_LIC,4616341,27.96,93.0,2017-05-05T10:21:51.000,0,Normal,Moderate traffic,7,40.709080,-73.995900,40.708060,-73.999370,40.708610,-73.998270,"40.709080,-73.995900 40.708950,-73.996941 40.708820,-73.997611 40.708610,-73.998270 40.708410,-73.998731 40.708220,-73.999110 40.708060,-73.999370"
4616334,224,FDR S Catherine Slip - Whitehall St,Manhattan,NYC_DOT_LIC,4616334,8.7,156.0,2015-12-08T15:24:35.000,0,Normal,Severe congestion,12,40.709150,-73.995921,40.701940,-74.010080,40.705210,-74.004551,"40.709150,-73.995921 40.708950,-73.997400 40.708710,-73.998180 40.708451,-73.998890 40.707990,-73.999681 40.706310,-74.002801 40.705210,-74.004551 40.703920,-74.006540 40.702760,-74.008430 40.702350,-74.009090 40.702120,-74.009550 40.701940,-74.010080"
4456495,225,FDR S Whitehall St - BBT Manhattan Portal outbound,Manhattan,NYC_DOT_LIC,4456495,31.69,111.0,2015-07-15T10:56:05.000,0,Normal,Moderate traffic,13,40.701300,-74.013170,40.706661,-74.000000,40.704290,-74.016520,"40.701300,-74.013170 40.701480,-74.014261 40.701641,-74.014801 40.702111,-74.015481 40.702800,-74.015980 40.703481,-74.016321 40.704290,-74.016520 40.704840,-74.016580 40.705030,-74.016580 40.705440,-74.016440 40.705880,-74.016281 40.706371,-74.016090 40.706661,-74.000000"
4620298,265,GWB E LOWER LEVEL PLAZA - CBE E LOWER LEVEL AMSTERDAM AVE,Manhattan,PA-GWBridge,4620298,37.28,199.0,2017-05-05T10:26:49.000,0,Normal,Free flow,12,40.846250,-73.932161,40.853190,-73.961330,40.850900,-73.950381,"40.846250,-73.932161 40.846951,-73.933641 40.848420,-73.937041 40.849031,-73.939940 40.849380,-73.941810 40.849900,-73.944651 40.850900,-73.950381 40.851390,-73.952830 40.851860,-73.955250 40.852771,-73.959570 40.853020,-73.960520 40.853190,-73.961330"
4329473,324,LINCOLN TUNNEL E CENTER TUBE NJ - NY,Manhattan,PA -Lincoln Tunnel,4329473,6.84,767.0,2017-05-05T10:26:49.000,0,Normal,Severe congestion,4,40.757811,-73.996801,40.766210,-74.017120,40.762021,-74.007050,"40.757811,-73.996801 40.760451,-74.003221 40.762021,-74.007050 40.766210,-74.017120"
4329472,325,LINCOLN TUNNEL E SOUTH TUBE - NJ - NY,Manhattan,PA -Lincoln Tunnel,4329472,8.7,586.0,2017-05-05T10:26:49.000,0,Normal,Severe congestion,4,40.758290,-73.997531,40.766290,-74.017060,40.762060,-74.007021,"40.758290,-73.997531 40.760500,-74.003200 40.762060,-74.007021 40.766290,-74.017060"
4329508,329,LINCOLN TUNNEL W CENTER TUBE NY - NJ,Manhattan,PA -Lincoln Tunnel,4329508,3.73,1299.0,2017-05-04T23:47:51.000,0,Normal,Severe congestion,4,40.757660,-73.996870,40.766150,-74.017170,40.761970,-74.007100,"40.757660,-73.996870 40.760400,-74.003280 40.761970,-74.007100 40.766150,-74.017170"
4329507,330,LINCOLN TUNNEL W NORTH TUBE NY - NJ,Manhattan,PA -Lincoln Tunnel,4329507,29.83,166.0,2017-05-05T10:26:49.000,0,Normal,Moderate traffic,4,40.757190,-73.997240,40.766080,-74.017260,40.761850,-74.007250,"40.757190,-73.997240 40.760170,-74.003820 40.761850,-74.007250 40.766080,-74.017260"
4456511,364,QMT E Manhattan Side - Toll Plaza,Manhattan,NYC_DOT_LIC,4456511,4.97,670.0,2017-05-05T10:25:54.000,0,Normal,Severe congestion,11,40.745726,-73.973590,40.741360,-73.953780,40.745365,-73.966430,"40.745726,-73.973590 40.745616,-73.973050 40.745616,-73.972640 40.746054,-73.969490 40.745860,-73.968440 40.745365,-73.966430 40.743040,-73.961570 40.742440,-73.959830 40.742185,-73.958870 40.741430,-73.954910 40.741360,-73.953780"
4456452,399,TBB W - FDR S MANHATTAN TRUSS - E116TH STREET,Manhattan,MTA Bridges & Tunnels,4456452,16.78,141.0,2017-05-05T10:25:54.000,0,Normal,Heavy congestion,13,40.801100,-73.928460,40.797710,-73.929341,40.800501,-73.931060,"40.801100,-73.928460 40.801510,-73.930660 40.801400,-73.931110 40.801230,-73.931290 40.800960,-73.931410 40.800741,-73.931330 40.800501,-73.931060 40.800260,-73.930570 40.810000,-73.930020 40.799761,-73.929720 40.799420,-73.929511 40.799010,-73.929450 40.797710,-73.929341"
4616335,442,West St N Whitehall - Watts St,Manhattan,NYC_DOT_LIC,4616335,8.7,866.0,2015-12-08T15:24:35.000,0,Normal,Severe congestion,13,40.701401,-74.012481,40.707940,-74.015460,40.703530,-74.016340,"40.701401,-74.012481 40.701290,-74.013061 40.701421,-74.013990 40.701630,-74.014801 40.702050,-74.015431 40.702631,-74.015881 40.703530,-74.016340 40.704311,-74.016540 40.705500,-74.016570 40.705680,-74.016340 40.706400,-74.016070 40.706690,-74.015900 40.707940,-74.015460"
4616343,443,West St S Battery Pl - BKN Bridge Manhattan Side,Manhattan,NYC_DOT_LIC,4616343,19.26,300.0,2015-12-08T15:24:35.000,0,Normal,Heavy congestion,13,40.704750,-74.016700,40.702440,-74.008811,40.701421,-74.014840,"40.704750,-74.016700 40.704300,-74.016670 40.703870,-74.016610 40.702921,-74.016231 40.702210,-74.015801 40.701790,-74.015420 40.701421,-74.014840 40.701270,-74.013940 40.701200,-74.013160 40.701380,-74.012190 40.701840,-74.010160 40.702500,-74.009580 40.702440,-74.008811"
4616327,444,West St S Battery Pl - FDR N Catherine Slip,Manhattan,NYC_DOT_LIC,4616327,13.05,105.0,2015-12-08T15:24:35.000,0,Normal,Heavy congestion,12,40.705111,-74.016630,40.704810,-74.004951,40.701280,-74.013990,"40.705111,-74.016630 40.704320,-74.016670 40.703521,-74.016561 40.702240,-74.015841 40.701620,-74.015270 40.701401,-74.014730 40.701280,-74.013990 40.701200,-74.013270 40.701401,-74.012031 40.701891,-74.009950 40.703060,-74.007731 40.704810,-74.004951"
4456494,445,West St S Spring St - BBT Manhattan Portal outbound,Manhattan,NYC_DOT_LIC,4456494,3.73,1511.0,2017-05-05T09:57:54.000,0,Normal,Severe congestion,11,40.726201,-74.011120,40.707200,-74.015980,40.714451,-74.013760,"40.726201,-74.011120 40.725280,-74.011280 40.721810,-74.011981 40.719550,-74.012471 40.716540,-74.013231 40.714451,-74.013760 40.712510,-74.014290 40.710841,-74.014721 40.708690,-74.015420 40.707931,-74.015720 40.707200,-74.015980"
4616326,446,West St S Spring St - Battery Pl,Manhattan,NYC_DOT_LIC,4616326,13.05,779.0,2015-12-08T15:24:35.000,0,Normal,Heavy congestion,6,40.726190,-74.011131,40.705071,-74.016440,40.709760,-74.015110,"40.726190,-74.011131 40.720370,-74.012261 40.712060,-74.014430 40.709760,-74.015110 40.706861,-74.016141 40.705071,-74.016440"
4616336,447,West St Watts St - 11th Ave Ganesvoort,Manhattan,NYC_DOT_LIC,4616336,8.7,444.0,2015-12-08T15:24:35.000,0,Normal,Severe congestion,8,40.724231,-74.011240,40.740500,-74.009230,40.737610,-74.009850,"40.724231,-74.011240 40.726860,-74.010800 40.730270,-74.010430 40.733800,-74.010080 40.737610,-74.009850 40.738970,-74.009940 40.739750,-74.009670 40.740500,-74.009230"
4620343,448,Westside Hwy N 57th St - GWB,Manhattan,NYC_DOT_LIC,4620343,44.74,438.0,2017-05-05T10:26:50.000,0,Normal,Free flow,13,40.771490,-73.994230,40.793190,-73.979500,40.784131,-73.984920,"40.771490,-73.994230 40.771900,-73.994010 40.774810,-73.991960 40.778390,-73.989341 40.779960,-73.988171 40.781280,-73.987011 40.784131,-73.984920 40.785930,-73.983660 40.787730,-73.982860 40.789481,-73.982121 40.790860,-73.981361 40.792351,-73.980270 40.793190,-73.979500"
4616346,450,Westside Hwy S GWB - 57th St,Manhattan,NYC_DOT_LIC,4616346,42.87,460.0,2017-05-05T10:21:51.000,0,Normal,Free flow,12,40.850030,-73.944831,40.837320,-73.948830,40.841281,-73.945740,"40.850030,-73.944831 40.849200,-73.945241 40.848350,-73.945271 40.844430,-73.945051 40.843530,-73.945110 40.842610,-73.945271 40.841281,-73.945740 40.840180,-73.946311 40.839541,-73.946770 40.838560,-73.947611 40.837610,-73.948560 40.837320,-73.948830"
4456479,140,BE S TBB EXIT RAMP - MANHATTAN LIFT SPAN,Queens,MTA Bridges & Tunnels,4456479,19.88,152.0,2017-05-05T10:25:54.000,0,Normal,Heavy congestion,13,40.797890,-73.919880,40.800960,-73.920000,40.798110,-73.922631,"40.797890,-73.919880 40.797710,-73.920040 40.797580,-73.920220 40.797470,-73.920590 40.797501,-73.921090 40.797660,-73.921650 40.798110,-73.922631 40.798340,-73.922991 40.798720,-73.923810 40.799091,-73.924681 40.799331,-73.925240 40.799980,-73.926881 40.800960,-73.920000"
4456478,141,BE S TBB EXIT RAMP - QUEENS ANCHORAGE,Queens,MTA Bridges & Tunnels,4456478,29.83,235.0,2017-05-05T10:25:54.000,0,Normal,Moderate traffic,12,40.772251,-73.919891,40.786621,-73.929511,40.783720,-73.929820,"40.772251,-73.919891 40.773910,-73.922200 40.774740,-73.923010 40.776470,-73.924310 40.778361,-73.925761 40.781020,-73.927760 40.783720,-73.929820 40.784221,-73.930020 40.784770,-73.930110 40.785490,-73.930051 40.786030,-73.929850 40.786621,-73.929511"
4456497,164,BWB N Queens Anchorage - Toll Plaza,Queens,NYC_DOT_LIC,4456497,16.78,266.0,2017-05-05T10:25:54.000,0,Normal,Heavy congestion,8,40.799320,-73.828090,40.814821,-73.836290,40.812020,-73.836031,"40.799320,-73.828090 40.800600,-73.828950 40.804700,-73.831460 40.811441,-73.835710 40.812020,-73.836031 40.812490,-73.836211 40.812851,-73.836261 40.814821,-73.836290"
4616312,167,BWB S Queens Anchorage - WSE S Exit 14 (Linden Pl),Queens,NYC_DOT_LIC,4616312,49.09,139.0,2017-05-05T10:21:49.000,0,Normal,Free flow,12,40.799260,-73.828251,40.781700,-73.825270,40.790761,-73.823421,"40.799260,-73.828251 40.797510,-73.827091 40.795711,-73.825800 40.793291,-73.824190 40.792590,-73.823780 40.791681,-73.823501 40.790761,-73.823421 40.788611,-73.823620 40.787041,-73.824140 40.784390,-73.824700 40.782490,-73.825031 40.781700,-73.825270"
4616355,169,Belt Pkwy E 182nd St - Laurelton Pkwy N @ SSP,Queens,NYC_DOT_LIC,4616355,47.22,195.0,2017-05-05T10:21:51.000,0,Normal,Free flow,14,40.666390,-73.762480,40.673700,-73.700000,40.665920,-73.740680,"40.666390,-73.762480 40.665790,-73.757060 40.665740,-73.756300 40.665710,-73.749400 40.665420,-73.742440 40.665520,-73.741730 40.665640,-73.741330 40.665920,-73.740680 40.666100,-73.740330 40.666620,-73.739640 40.667100,-73.739150 40.668210,-73.738200 40.672210,-73.735510 40.673700,-73.700000"
4616356,170,Belt Pkwy W 182nd St - JFK Expressway,Queens,NYC_DOT_LIC,4616356,49.09,76.0,2017-05-05T10:21:51.000,0,Normal,Free flow,7,40.666521,-73.762460,40.666730,-73.786471,40.667520,-73.772861,"40.666521,-73.762460 40.667380,-73.770210 40.667510,-73.772090 40.667520,-73.772861 40.667490,-73.775591 40.667220,-73.781080 40.666730,-73.786471"
4616357,171,Belt Pkwy W JFK Expressway - VWE N Jamaica Ave,Queens,NYC_DOT_LIC,4616357,16.78,686.0,2017-05-05T10:21:51.000,0,Normal,Heavy congestion,12,40.666730,-73.786490,40.666971,-73.799890,40.666771,-73.793241,"40.666730,-73.786490 40.666420,-73.789580 40.666420,-73.789580 40.666420,-73.790421 40.666501,-73.791610 40.666771,-73.793241 40.666771,-73.793241 40.666740,-73.796111 40.666740,-73.796111 40.666720,-73.799361 40.666810,-73.799681 40.666971,-73.799890"
4616351,199,CIP N Hempstead Tpk - LIE,Queens,NYC_DOT_LIC,4616351,47.85,230.0,2017-05-05T10:21:51.000,0,Normal,Free flow,13,40.711670,-73.728390,40.731770,-73.722940,40.717350,-73.728030,"40.711670,-73.728390 40.713090,-73.728920 40.713620,-73.729020 40.714860,-73.729100 40.715770,-73.728910 40.716740,-73.728490 40.717350,-73.728030 40.719180,-73.726430 40.720080,-73.725860 40.720730,-73.725570 40.722460,-73.724990 40.723220,-73.724800 40.731770,-73.722940"
4362252,206,CIP N LIE ramp - TNB,Queens,NYC-DOT-Region 10,4362252,11.18,1051.0,2016-08-05T14:17:16.000,0,Normal,Heavy congestion,12,40.788971,-73.790541,40.787150,-73.775790,40.789370,-73.781090,"40.788971,-73.790541 40.788940,-73.789571 40.789230,-73.787750 40.789580,-73.785520 40.789641,-73.784660 40.789520,-73.782100 40.789370,-73.781090 40.789110,-73.779830 40.788650,-73.778501 40.788220,-73.777550 40.787660,-73.776491 40.787150,-73.775790"
4616320,204,CIP N TNB - Whitestone Expwy S Exit 14 (Linden Pl),Queens,NYC_DOT_LIC,4616320,9.94,1071.0,2017-05-05T10:21:49.000,0,Normal,Severe congestion,12,40.789441,-73.786291,40.786331,-73.805250,40.786400,-73.794901,"40.789441,-73.786291 40.789180,-73.787920 40.788760,-73.789521 40.788270,-73.790631 40.787291,-73.792630 40.786680,-73.794100 40.786400,-73.794901 40.786120,-73.796241 40.786020,-73.796930 40.785960,-73.798370 40.786150,-73.801820 40.786331,-73.805250"
4456483,202,CIP N ramp to TNB - TNB Queens Anchorage,Queens,NYC_DOT_LIC,4456483,29.2,25.0,2017-05-05T10:25:54.000,0,Normal,Moderate traffic,12,40.789536,-73.786310,40.791976,-73.793000,40.789536,-73.791570,"40.789536,-73.786310 40.789400,-73.787650 40.788976,-73.789550 40.788960,-73.790110 40.789124,-73.790860 40.789270,-73.791180 40.789536,-73.791570 40.789960,-73.791960 40.790714,-73.792460 40.790714,-73.792460 40.791100,-73.792670 40.791976,-73.793000"
4362247,205,CIP NB GCP - TNB,Queens,NYC-DOT-Region 10,4362247,11.81,1294.0,2016-08-05T13:16:46.000,0,Normal,Heavy congestion,12,40.788190,-73.790520,40.787041,-73.775920,40.789241,-73.781160,"40.788190,-73.790520 40.788791,-73.788950 40.789120,-73.787710 40.789410,-73.785730 40.789481,-73.784480 40.789410,-73.782550 40.789241,-73.781160 40.788960,-73.779920 40.788541,-73.778660 40.788090,-73.777661 40.787540,-73.776640 40.787041,-73.775920"
4616352,207,CIP S Hempstead Tpk - Laurelton Pkwy @ SSP,Queens,NYC_DOT_LIC,4616352,47.85,159.0,2017-05-05T10:21:51.000,0,Normal,Free flow,12,40.714260,-73.729261,40.685260,-73.726340,40.690941,-73.726780,"40.714260,-73.729261 40.713660,-73.729200 40.712391,-73.728861 40.710380,-73.727950 40.709121,-73.727630 40.697980,-73.727090 40.690941,-73.726780 40.690090,-73.726780 40.689320,-73.726730 40.687321,-73.726410 40.685260,-73.726341 40.685260,-73.726340"
4616350,208,CIP S LIE - Hempstead Tpk,Queens,NYC_DOT_LIC,4616350,49.09,222.0,2017-05-05T10:21:51.000,0,Normal,Free flow,13,40.748770,-73.738950,40.738080,-73.723981,40.744000,-73.733020,"40.748770,-73.738950 40.747990,-73.737840 40.747170,-73.736890 40.746250,-73.735970 40.745470,-73.735000 40.744660,-73.734000 40.744000,-73.733020 40.743720,-73.732510 40.741840,-73.728490 40.740600,-73.726420 40.739600,-73.725120 40.738890,-73.724471 40.738080,-73.723981"
4362250,211,CVE NB GCP - WILLETS PT BLVD,Queens,NYC-DOT-Region 10,4362250,50.95,322.0,2017-05-05T10:26:29.000,0,Normal,Free flow,12,40.787950,-73.790191,40.773730,-73.784260,40.784381,-73.786071,"40.787950,-73.790191 40.786470,-73.788120 40.786210,-73.787781 40.785870,-73.787381 40.785411,-73.786931 40.784651,-73.786261 40.784381,-73.786071 40.783270,-73.785470 40.782660,-73.785271 40.779560,-73.784630 40.776060,-73.784390 40.773730,-73.784260"
4362244,212,CVE NB LIE - WILLETS PT BLVD,Queens,NYC-DOT-Region 10,4362244,29.83,310.0,2017-05-05T10:26:29.000,0,Normal,Moderate traffic,12,40.788020,-73.790030,40.781160,-73.784890,40.784400,-73.786010,"40.788020,-73.790030 40.786860,-73.788380 40.786351,-73.787771 40.785450,-73.786831 40.785020,-73.786481 40.784800,-73.786320 40.784400,-73.786010 40.783770,-73.785671 40.783170,-73.785380 40.782640,-73.785200 40.781700,-73.784970 40.781160,-73.784890"
4362342,311,LIE E 84TH ST - 108TH ST,Queens,NYC_DOT_LIC,4362342,39.77,125.0,2017-05-05T10:26:34.000,0,Normal,Free flow,10,40.729660,-73.877750,40.737285,-73.851840,40.735045,-73.860540,"40.729660,-73.877750 40.730165,-73.876430 40.730400,-73.875670 40.732410,-73.869130 40.734285,-73.863210 40.735045,-73.860540 40.735630,-73.858670 40.736584,-73.855310 40.736944,-73.853270 40.737285,-73.851840"
4616365,313,LIE E QMT TOLL PLAZA - 84TH ST,Queens,NYC_DOT_LIC,4616365,36.04,384.0,2017-03-21T21:41:50.000,0,Normal,Free flow,11,40.741380,-73.954050,40.737646,-73.935310,40.740600,-73.944610,"40.741380,-73.954050 40.741270,-73.952220 40.741590,-73.950250 40.741590,-73.949620 40.741155,-73.947100 40.740600,-73.944610 40.739860,-73.942750 40.738570,-73.939790 40.738190,-73.938650 40.737960,-73.937620 40.737646,-73.935310"
4616364,315,LIE W 108TH ST - 84TH ST,Queens,NYC_DOT_LIC,4616364,21.75,222.0,2017-05-05T10:21:51.000,0,Normal,Moderate traffic,10,40.737440,-73.851880,40.729770,-73.877960,40.733840,-73.865140,"40.737440,-73.851880 40.737015,-73.853730 40.736730,-73.855430 40.736526,-73.856310 40.735335,-73.860330 40.733840,-73.865140 40.732064,-73.870650 40.731755,-73.871780 40.730294,-73.876560 40.729770,-73.877960"
4456516,316,LIE W 84TH ST - QMT TOLL PLAZA,Queens,NYC_DOT_LIC,4456516,0.0,0.0,2017-04-11T15:17:02.000,-101,No recent speed status,Severe congestion,11,40.729785,-73.877920,40.726045,-73.890610,40.728400,-73.885190,"40.729785,-73.877920 40.729120,-73.879590 40.728865,-73.880510 40.728670,-73.882210 40.728540,-73.884030 40.728400,-73.885190 40.728150,-73.886410 40.727815,-73.887380 40.727620,-73.887810 40.726630,-73.889410 40.726045,-73.890610"
4362249,318,LIE WB LITTLE NECK PKWY - NB CIP,Queens,NYC-DOT-Region 10,4362249,34.18,116.0,2017-05-05T10:26:29.000,0,Normal,Moderate traffic,12,40.744221,-73.771661,40.750840,-73.750230,40.748870,-73.758420,"40.744221,-73.771661 40.745431,-73.769070 40.745701,-73.768310 40.746501,-73.765400 40.747640,-73.761280 40.748091,-73.760080 40.748870,-73.758420 40.749200,-73.757551 40.749470,-73.756580 40.750320,-73.753190 40.750691,-73.751080 40.750840,-73.750230"
4362251,319,LIE WB LITTLE NECK PKWY - NB CVE,Queens,NYC-DOT-Region 10,4362251,29.83,360.0,2017-05-05T10:26:29.000,0,Normal,Moderate traffic,12,40.753750,-73.744391,40.763800,-73.726090,40.760721,-73.731960,"40.753750,-73.744391 40.756050,-73.740851 40.757671,-73.738391 40.759190,-73.735841 40.759660,-73.734851 40.759990,-73.733880 40.760721,-73.731960 40.761130,-73.731051 40.761780,-73.729990 40.762740,-73.728510 40.763310,-73.727421 40.763800,-73.726090"
4616353,331,Laurelton Pkwy N @ SSP - CIP N Hempstead Tpk,Queens,NYC_DOT_LIC,4616353,45.98,170.0,2017-05-05T10:21:51.000,0,Normal,Free flow,12,40.683310,-73.726630,40.687260,-73.724850,40.685230,-73.724720,"40.683310,-73.726630 40.683610,-73.726460 40.684170,-73.726000 40.684650,-73.725470 40.685030,-73.724950 40.685030,-73.724950 40.685230,-73.724720 40.685730,-73.724440 40.686130,-73.724330 40.686630,-73.724400 40.686870,-73.724520 40.687260,-73.724850"
4616354,332,Laurelton Pkwy S @ SSP - Belt Pkwy W 182nd St,Queens,NYC_DOT_LIC,4616354,49.09,186.0,2017-05-05T10:21:51.000,0,Normal,Free flow,12,40.683644,-73.726670,40.667490,-73.739000,40.675260,-73.733400,"40.683644,-73.726670 40.683140,-73.726920 40.681365,-73.728060 40.678944,-73.729830 40.678236,-73.730470 40.676420,-73.732340 40.675260,-73.733400 40.673794,-73.734640 40.672886,-73.735330 40.668966,-73.738050 40.668534,-73.738310 40.667490,-73.739000"
4456477,347,MDE S TBB EXIT RAMP - QUEENS ANCHORAGE,Queens,MTA Bridges & Tunnels,4456477,26.72,262.0,2017-05-05T10:25:54.000,0,Normal,Moderate traffic,13,40.772230,-73.919941,40.789720,-73.926000,40.783711,-73.929871,"40.772230,-73.919941 40.773670,-73.921980 40.774421,-73.922780 40.777140,-73.924911 40.781071,-73.927880 40.783110,-73.929421 40.783711,-73.929871 40.784221,-73.930080 40.784770,-73.930170 40.785490,-73.930110 40.786040,-73.929910 40.786650,-73.929530 40.789720,-73.926000"
4456510,365,QMT W Toll Plaza - Manhattan Side,Queens,NYC_DOT_LIC,4456510,14.91,270.0,2016-12-28T09:06:29.000,0,Normal,Heavy congestion,9,40.741534,-73.954060,40.746704,-73.975150,40.745436,-73.966310,"40.741534,-73.954060 40.741500,-73.954910 40.742526,-73.959760 40.743125,-73.961520 40.745436,-73.966310 40.746234,-73.969460 40.745835,-73.972590 40.745980,-73.973470 40.746704,-73.975150"
4616225,394,TBB N QUEENS ANCHORAGE - BE N,Queens,NYC_DOT_LIC,4616225,16.78,429.0,2017-05-05T10:26:51.000,0,Normal,Heavy congestion,12,40.772330,-73.919790,40.786740,-73.929230,40.783640,-73.929571,"40.772330,-73.919790 40.773840,-73.921920 40.774450,-73.922581 40.775471,-73.923431 40.778400,-73.925610 40.781060,-73.927591 40.783640,-73.929571 40.784300,-73.929860 40.785100,-73.929921 40.785810,-73.929781 40.786270,-73.929550 40.786740,-73.929230"
4456476,395,TBB N QUEENS ANCHORAGE - MANHATTAN LIFT SPAN,Queens,MTA Bridges & Tunnels,4456476,13.05,617.0,2017-05-05T10:25:54.000,0,Normal,Heavy congestion,13,40.772300,-73.919830,40.787990,-73.920000,40.783630,-73.929611,"40.772300,-73.919830 40.773830,-73.921970 40.774430,-73.922610 40.775460,-73.923460 40.778381,-73.925631 40.781030,-73.927631 40.783630,-73.929611 40.784271,-73.929890 40.785100,-73.929971 40.785810,-73.929841 40.786290,-73.929601 40.786801,-73.929230 40.787990,-73.920000"
4456481,398,TBB S MANHATTAN LIFT SPAN - QUEENS ANCHORAGE,Queens,MTA Bridges & Tunnels,4456481,19.26,397.0,2017-05-05T10:25:54.000,0,Normal,Heavy congestion,13,40.772230,-73.919941,40.789720,-73.926000,40.783711,-73.929871,"40.772230,-73.919941 40.773670,-73.921980 40.774421,-73.922780 40.777140,-73.924911 40.781071,-73.927880 40.783110,-73.929421 40.783711,-73.929871 40.784221,-73.930080 40.784770,-73.930170 40.785490,-73.930110 40.786040,-73.929910 40.786650,-73.929530 40.789720,-73.926000"
4456505,402,TNB N Queens Anchorage - Toll Plaza,Queens,NYC_DOT_LIC,4456505,42.25,161.0,2017-04-28T22:34:54.000,0,Normal,Free flow,12,40.797815,-73.793210,40.816620,-73.798720,40.813344,-73.794680,"40.797815,-73.793210 40.802180,-73.793240 40.807614,-73.793450 40.809816,-73.793450 40.811155,-73.793650 40.812240,-73.794030 40.813344,-73.794680 40.814180,-73.795340 40.814734,-73.795860 40.815350,-73.796550 40.816125,-73.797720 40.816620,-73.798720"
4362314,405,TNB S Qns Anchorage - CIP S @ TNB,Queens,NYC_DOT_LIC,4362314,47.85,53.0,2017-03-21T21:42:33.000,0,Normal,Free flow,12,40.797820,-73.793390,40.787750,-73.791350,40.790100,-73.792520,"40.797820,-73.793390 40.793425,-73.793440 40.792794,-73.793370 40.792000,-73.793180 40.790860,-73.792760 40.790860,-73.792760 40.790100,-73.792520 40.788326,-73.792290 40.788055,-73.792120 40.787920,-73.791970 40.787790,-73.791550 40.787750,-73.791350"
4456506,406,TNB S Toll Plaza - Queens Anchorage,Queens,NYC_DOT_LIC,4456506,45.98,144.0,2017-04-29T03:54:00.000,0,Normal,Free flow,12,40.817630,-73.803620,40.811120,-73.793820,40.815185,-73.796590,"40.817630,-73.803620 40.817516,-73.802610 40.817226,-73.800830 40.816920,-73.799840 40.816330,-73.798390 40.815835,-73.797510 40.815185,-73.796590 40.814390,-73.795730 40.813530,-73.795030 40.812420,-73.794330 40.811860,-73.794070 40.811120,-73.793820"
4616298,422,VWE N MP4.63 (Exit 6 - Jamaica Ave) - MP6.39 (Exit 11 Jewel Ave),Queens,NYC_DOT_LIC,4616298,22.99,390.0,2017-05-05T10:21:49.000,0,Normal,Moderate traffic,12,40.727881,-73.832761,40.720960,-73.826371,40.723790,-73.828341,"40.727881,-73.832761 40.727071,-73.832310 40.726511,-73.831911 40.726030,-73.831400 40.724771,-73.829501 40.724280,-73.828860 40.723790,-73.828341 40.723260,-73.827851 40.722460,-73.827290 40.721951,-73.826960 40.721520,-73.826681 40.720960,-73.826371"
4616299,423,VWE N MP6.39 (Exit 11 Jewel Ave) - MP8.65 (Exit 13 Northern Blvd),Queens,NYC_DOT_LIC,4616299,19.88,172.0,2017-05-05T10:21:49.000,0,Normal,Heavy congestion,12,40.762480,-73.839391,40.755220,-73.838200,40.760240,-73.838690,"40.762480,-73.839391 40.761910,-73.839121 40.761530,-73.838920 40.761220,-73.838790 40.760960,-73.838721 40.760610,-73.838681 40.760240,-73.838690 40.758770,-73.838840 40.758450,-73.838811 40.758140,-73.838771 40.755881,-73.838371 40.755220,-73.838200"
4616300,424,VWE N MP8.64 (Exit 13 Northern Blvd) - Whitestone Expwy Exit 14 (Linden Pl),Queens,NYC_DOT_LIC,4616300,19.88,189.0,2017-05-05T10:21:49.000,0,Normal,Heavy congestion,12,40.771250,-73.833351,40.764281,-73.839650,40.767250,-73.837980,"40.771250,-73.833351 40.770650,-73.834421 40.770060,-73.835400 40.769341,-73.836410 40.768740,-73.836931 40.767970,-73.837601 40.767250,-73.837980 40.765910,-73.838890 40.765580,-73.839031 40.765010,-73.839370 40.764630,-73.839550 40.764281,-73.839650"
4616276,425,VWE S MP2.66 (Exit 2 Rockaway Blvd) - Belt Pkwy E 182nd St,Queens,NYC_DOT_LIC,4616276,42.87,248.0,2017-05-05T10:21:49.000,0,Normal,Free flow,12,40.674450,-73.801810,40.663141,-73.799051,40.664070,-73.802511,"40.674450,-73.801810 40.673740,-73.801540 40.672611,-73.801301 40.670821,-73.801230 40.667520,-73.801481 40.664790,-73.802321 40.664070,-73.802511 40.663340,-73.802290 40.662710,-73.801490 40.662550,-73.800541 40.662710,-73.799771 40.663141,-73.799051"
4616272,426,VWE S MP4.63 (Exit 6 Jamaica Ave) - MP2.66 (Exit 2 Roackaway Blvd),Queens,NYC_DOT_LIC,4616272,29.2,237.0,2017-05-05T10:21:49.000,0,Normal,Moderate traffic,7,40.702420,-73.816481,40.674450,-73.801810,40.695910,-73.812981,"40.702420,-73.816481 40.700841,-73.815751 40.697260,-73.813820 40.695910,-73.812981 40.688630,-73.808861 40.677510,-73.803261 40.674450,-73.801810"
4616259,427,VWE S MP6.39 (Exit 11 Jewel Ave) - MP4.63 (Exit 6 Jamaica Ave),Queens,NYC_DOT_LIC,4616259,36.04,249.0,2017-05-05T10:21:49.000,0,Normal,Free flow,12,40.727921,-73.832980,40.718861,-73.826340,40.723690,-73.828480,"40.727921,-73.832980 40.726890,-73.832390 40.726390,-73.832001 40.725750,-73.831260 40.724951,-73.830031 40.724301,-73.829141 40.723690,-73.828480 40.722900,-73.827801 40.720960,-73.826541 40.720400,-73.826340 40.719580,-73.826210 40.718861,-73.826340"
4616241,428,VWE S MP8.65 (Exit 13 Northern Blvd) - MP6.39 (Exit 11 Jewel Ave),Queens,NYC_DOT_LIC,4616241,9.94,515.0,2017-05-05T10:26:51.000,0,Normal,Severe congestion,12,40.762601,-73.839671,40.749841,-73.835000,40.757880,-73.838934,"40.762601,-73.839671 40.761391,-73.838980 40.761050,-73.838870 40.760541,-73.838790 40.760010,-73.838821 40.758310,-73.838970 40.757880,-73.838934 40.755130,-73.838340 40.754550,-73.838110 40.751300,-73.835911 40.750410,-73.835300 40.749841,-73.835000"
4456500,451,Whitestone Expwy N Exit 14 (Linden Pl) - BWB N Queens Anchorage,Queens,NYC_DOT_LIC,4456500,21.75,324.0,2017-05-05T10:25:54.000,0,Normal,Moderate traffic,12,40.771260,-73.833311,40.788890,-73.822701,40.780870,-73.825370,"40.771260,-73.833311 40.772780,-73.830870 40.773330,-73.830150 40.774210,-73.829271 40.775840,-73.828140 40.778680,-73.826510 40.780870,-73.825370 40.781890,-73.824941 40.782980,-73.824621 40.787060,-73.823790 40.788160,-73.823210 40.788890,-73.822701"
4616239,453,Whitestone Expwy S Exit 14 (Linden Pl) - VWE S MP8.65 (Exit 13 Northern Blvd),Queens,NYC_DOT_LIC,4616239,9.94,632.0,2017-05-05T10:26:51.000,0,Normal,Severe congestion,12,40.771421,-73.833450,40.762601,-73.839671,40.764900,-73.839841,"40.771421,-73.833450 40.770270,-73.835400 40.769240,-73.836711 40.767500,-73.838271 40.765920,-73.839261 40.765480,-73.839540 40.764900,-73.839841 40.764560,-73.839950 40.764180,-73.840010 40.763671,-73.840000 40.763300,-73.839941 40.762601,-73.839671"
4616279,107,278 E BRUNSWICK AVENUE - SIE E SOUTH AVENUE,Staten Island,NYC_DOT_LIC,4616279,49.71,217.0,2014-12-03T12:26:11.000,0,Normal,Free flow,13,40.642890,-74.213160,40.633810,-74.193360,40.639770,-74.203670,"40.642890,-74.213160 40.642750,-74.212220 40.642810,-74.209940 40.642620,-74.208760 40.641330,-74.206260 40.640200,-74.204380 40.639770,-74.203670 40.639210,-74.202840 40.637850,-74.200800 40.637270,-74.199890 40.636320,-74.198080 40.635110,-74.195810 40.633810,-74.193360"
4616280,108,278 E BRUNSWICK AVENUE - WSE S SOUTH AVENUE,Staten Island,NYC_DOT_LIC,4616280,37.9,315.0,2014-12-03T12:20:11.000,0,Normal,Free flow,13,40.624640,-74.177570,40.618930,-74.177290,40.617860,-74.177570,"40.624640,-74.177570 40.623450,-74.176790 40.622420,-74.176570 40.621440,-74.176520 40.620170,-74.176830 40.618930,-74.177290 40.617860,-74.177570 40.624640,-74.177570 40.623450,-74.176790 40.622420,-74.176570 40.621440,-74.176520 40.620170,-74.176830 40.618930,-74.177290"
4616281,110,440 N FRANCIS STREET - WSE N TYRELLAN AVE,Staten Island,NYC_DOT_LIC,4616281,52.82,151.0,2017-05-05T10:21:49.000,0,Normal,Free flow,13,40.525600,-74.230390,40.525280,-74.266240,40.524550,-74.250730,"40.525600,-74.230390 40.525510,-74.232140 40.525390,-74.233440 40.525260,-74.237650 40.524930,-74.243950 40.524700,-74.248030 40.524550,-74.250730 40.524300,-74.253140 40.524190,-74.255360 40.524190,-74.256230 40.524580,-74.260330 40.524770,-74.262100 40.525280,-74.266240"
4329499,349,MLK N WALKER STREET - NJ ROUTE 169,Staten Island,NYC_DOT_LIC,4329499,6.84,786.0,2017-03-14T14:59:10.000,0,Normal,Severe congestion,12,40.630900,-74.145690,40.654011,-74.134041,40.646720,-74.140171,"40.630900,-74.145690 40.632590,-74.145531 40.634350,-74.145131 40.635291,-74.144911 40.639521,-74.143161 40.644520,-74.141111 40.646720,-74.140171 40.647491,-74.139780 40.652430,-74.136261 40.653271,-74.135490 40.653750,-74.134760 40.654011,-74.134041"
4616196,350,MLK S - SIE E WALKER STREET - WOOLEY AVENUE,Staten Island,NYC_DOT_LIC,4616196,29.2,248.0,2017-01-07T19:08:40.000,0,Normal,Moderate traffic,12,40.630920,-74.145920,40.621751,-74.148181,40.625420,-74.146180,"40.630920,-74.145920 40.629750,-74.145930 40.628770,-74.145790 40.627951,-74.145671 40.627130,-74.145681 40.626370,-74.145860 40.625420,-74.146180 40.624751,-74.146381 40.624101,-74.146661 40.623400,-74.147040 40.622601,-74.147501 40.621751,-74.148181"
4616210,351,MLK S - SIE W WALKER STREET - RICHMOND AVENUE,Staten Island,NYC_DOT_LIC,4616210,1.86,1448.0,2017-05-05T10:26:51.000,0,Normal,Severe congestion,12,40.630920,-74.145920,40.621751,-74.148181,40.625420,-74.146180,"40.630920,-74.145920 40.629750,-74.145930 40.628770,-74.145790 40.627951,-74.145671 40.627130,-74.145681 40.626370,-74.145860 40.625420,-74.146180 40.624751,-74.146381 40.624101,-74.146661 40.623400,-74.147040 40.622601,-74.147501 40.621751,-74.148181"
4616282,369,ROUTE 169 S - MLK WALKER STREET,Staten Island,NYC_DOT_LIC,4616282,3.11,1002.0,2017-05-05T10:21:49.000,0,Normal,Severe congestion,12,40.656320,-74.119720,40.647050,-74.140071,40.654251,-74.133981,"40.656320,-74.119720 40.655041,-74.122410 40.654411,-74.124361 40.654121,-74.125881 40.654011,-74.127141 40.654290,-74.133020 40.654251,-74.133981 40.654040,-74.134611 40.653580,-74.135461 40.653300,-74.135771 40.647860,-74.139640 40.647050,-74.140071"
4616193,375,SIE E BRADLEY AVENUE - CLOVE ROAD,Staten Island,NYC_DOT_LIC,4616193,37.9,150.0,2017-01-07T19:08:40.000,0,Normal,Free flow,9,40.610520,-74.097690,40.608040,-74.132120,40.611070,-74.115671,"40.610520,-74.097690 40.610100,-74.108930 40.610280,-74.110500 40.610970,-74.113000 40.611070,-74.115671 40.610790,-74.117260 40.609380,-74.122410 40.608431,-74.127401 40.608040,-74.132120"
4616192,376,SIE E CLOVE ROAD - FINGERBOARD ROAD,Staten Island,NYC_DOT_LIC,4616192,37.9,131.0,2017-01-07T19:08:40.000,0,Normal,Free flow,10,40.610520,-74.097690,40.603890,-74.069220,40.606500,-74.083851,"40.610520,-74.097690 40.610561,-74.095860 40.610241,-74.093881 40.609830,-74.092510 40.606980,-74.085740 40.606500,-74.083851 40.606160,-74.081781 40.605960,-74.076011 40.605470,-74.073421 40.603890,-74.069220"
4616195,377,SIE E RICHMOND AVENUE - WOOLEY AVENUE,Staten Island,NYC_DOT_LIC,4616195,37.9,92.0,2017-01-07T19:08:40.000,0,Normal,Free flow,7,40.614860,-74.157380,40.607570,-74.140900,40.607900,-74.146831,"40.614860,-74.157380 40.609310,-74.150120 40.608460,-74.148470 40.607900,-74.146831 40.607640,-74.145550 40.607491,-74.144040 40.607570,-74.140900"
4616197,378,SIE E SOUTH AVENUE - RICHMOND AVENUE,Staten Island,NYC_DOT_LIC,4616197,37.9,66.0,2017-01-07T19:08:40.000,0,Normal,Free flow,5,40.621010,-74.168861,40.614940,-74.157480,40.618211,-74.162381,"40.621010,-74.168861 40.620760,-74.168000 40.618211,-74.162381 40.615400,-74.158060 40.614940,-74.157480"
4763650,379,SIE E VNB E FINGERBOARD ROAD - SI GANTRY LOWER LEVEL,Staten Island,NYC_DOT_LIC,4763650,21.13,61.0,2017-05-05T10:25:54.000,0,Normal,Moderate traffic,12,40.604080,-74.052241,40.602180,-74.064440,40.601741,-74.060121,"40.604080,-74.052241 40.603660,-74.053560 40.603351,-74.054590 40.602990,-74.055641 40.602130,-74.058271 40.601860,-74.059150 40.601741,-74.060121 40.601720,-74.060950 40.601790,-74.061750 40.601851,-74.062621 40.602010,-74.063791 40.602180,-74.064440"
4763648,380,SIE E VNB E FINGERBOARD ROAD - SI GANTRY UPPER LEVEL,Staten Island,NYC_DOT_LIC,4763648,27.96,46.0,2017-05-05T10:25:54.000,0,Normal,Moderate traffic,13,40.603990,-74.052250,40.603750,-74.060000,40.601570,-74.060180,"40.603990,-74.052250 40.603551,-74.053590 40.603220,-74.054630 40.602890,-74.055660 40.601960,-74.058451 40.601700,-74.059250 40.601570,-74.060180 40.601530,-74.061371 40.601610,-74.062181 40.601741,-74.062770 40.601941,-74.063860 40.602100,-74.064490 40.603750,-74.060000"
4616194,381,SIE E WOOLEY AVENUE - BRADLEY AVENUE,Staten Island,NYC_DOT_LIC,4616194,37.9,38.0,2017-01-07T19:08:40.000,0,Normal,Free flow,2,40.608031,-74.132120,40.607590,-74.140900,40.607590,-74.140900,"40.608031,-74.132120 40.607590,-74.140900"
4616216,382,SIE E-MLK N RICHMOND AVENUE - WALKER STREET,Staten Island,NYC_DOT_LIC,4616216,49.71,172.0,2016-11-01T19:12:29.000,0,Normal,Free flow,12,40.630890,-74.145690,40.621700,-74.147961,40.625511,-74.145950,"40.630890,-74.145690 40.629800,-74.145690 40.628830,-74.145560 40.628050,-74.145451 40.627210,-74.145460 40.626420,-74.145600 40.625511,-74.145950 40.624790,-74.146140 40.624140,-74.146441 40.623400,-74.146791 40.622620,-74.147250 40.621700,-74.147961"
4616217,383,SIE W - MLK N WOOLEY AVENUE - WLAKER STREET,Staten Island,NYC_DOT_LIC,4616217,11.81,589.0,2016-11-01T22:43:29.000,0,Normal,Heavy congestion,7,40.616711,-74.152420,40.609600,-74.150101,40.614051,-74.152820,"40.616711,-74.152420 40.615720,-74.152760 40.614811,-74.152971 40.614051,-74.152820 40.613010,-74.152270 40.610340,-74.150871 40.609600,-74.150101"
4616199,384,SIE W - WSE S SOUTH AVENUE - SOUTH AVENUE,Staten Island,NYC_DOT_LIC,4616199,57.17,116.0,2016-10-31T11:15:35.000,0,Normal,Free flow,12,40.602130,-74.187981,40.621890,-74.170910,40.619210,-74.177141,"40.602130,-74.187981 40.605040,-74.185000 40.606870,-74.183601 40.609800,-74.181981 40.615771,-74.178370 40.617190,-74.177821 40.619210,-74.177141 40.620791,-74.175571 40.621540,-74.174191 40.621880,-74.173090 40.622040,-74.171580 40.621890,-74.170910"
4616208,385,SIE W BRADLEY AVENUE - WOOLEY AVENUE,Staten Island,NYC_DOT_LIC,4616208,37.28,33.0,2017-05-05T10:26:51.000,0,Normal,Free flow,2,40.607780,-74.140910,40.608260,-74.132101,40.608260,-74.132101,"40.607780,-74.140910 40.608260,-74.132101"
4616206,387,SIE W FINGERBOARD ROAD - CLOVE ROAD,Staten Island,NYC_DOT_LIC,4616206,37.28,130.0,2017-05-05T10:26:51.000,0,Normal,Free flow,12,40.610720,-74.097911,40.606070,-74.075180,40.607220,-74.085610,"40.610720,-74.097911 40.610750,-74.096270 40.610610,-74.094650 40.610210,-74.092990 40.609680,-74.091620 40.608411,-74.088620 40.607220,-74.085610 40.606790,-74.084350 40.606481,-74.082591 40.606360,-74.080900 40.606261,-74.076790 40.606070,-74.075180"
4616211,388,SIE W RICHMOND AVENUE - SOUTH AVENUE,Staten Island,NYC_DOT_LIC,4616211,1.86,628.0,2017-05-05T10:26:51.000,0,Normal,Severe congestion,6,40.615171,-74.157380,40.621191,-74.168740,40.620960,-74.167910,"40.615171,-74.157380 40.617390,-74.160560 40.620540,-74.166830 40.620960,-74.167910 40.621050,-74.168191 40.621191,-74.168740"
4329480,389,SIE W SOUTH AVENUE - 278 W BRUNSWICK AVENUE,Staten Island,NYC_DOT_LIC,4329480,11.18,1003.0,2014-12-03T10:03:36.000,0,Normal,Heavy congestion,12,40.621171,-74.168740,40.636960,-74.199131,40.625710,-74.178430,"40.621171,-74.168740 40.621390,-74.169880 40.621630,-74.171911 40.621971,-74.173431 40.622260,-74.174180 40.623500,-74.175451 40.625710,-74.178430 40.626410,-74.179400 40.627110,-74.180580 40.628340,-74.182701 40.629721,-74.185440 40.636960,-74.199131"
4616209,390,SIE W WOOLEY AVENUE - RICHMOND AVENUE,Staten Island,NYC_DOT_LIC,4616209,37.28,73.0,2017-05-05T10:26:51.000,0,Normal,Free flow,8,40.615211,-74.157401,40.607780,-74.140910,40.608321,-74.147561,"40.615211,-74.157401 40.612310,-74.153620 40.609520,-74.149961 40.608820,-74.148780 40.608321,-74.147561 40.607870,-74.145740 40.607720,-74.144160 40.607780,-74.140910"
4616205,418,VNB W-SIE W SI GANTRY LOWER LEVEL - FINGERBOARD ROAD,Staten Island,NYC_DOT_LIC,4616205,47.85,56.0,2017-05-05T10:26:51.000,0,Normal,Free flow,12,40.604250,-74.052321,40.602960,-74.065301,40.602031,-74.059920,"40.604250,-74.052321 40.603880,-74.053491 40.603551,-74.054550 40.603200,-74.055620 40.602380,-74.058130 40.602130,-74.059001 40.602031,-74.059920 40.602090,-74.060820 40.602270,-74.061781 40.602501,-74.062920 40.602791,-74.064231 40.602960,-74.065301"
4616213,430,WSE N ARDEN AVENUE - VICTORY BLVD,Staten Island,NYC_DOT_LIC,4616213,6.84,1023.0,2017-05-05T10:26:51.000,0,Normal,Severe congestion,9,40.590200,-74.193320,40.560400,-74.199410,40.572510,-74.189821,"40.590200,-74.193320 40.577480,-74.190460 40.576230,-74.190181 40.574201,-74.189800 40.572510,-74.189821 40.571620,-74.189980 40.570331,-74.190391 40.567770,-74.192011 40.560400,-74.199410"
4616214,431,WSE N BLOOMUINGDALE ROAD - ARDEN AVENUE,Staten Island,NYC_DOT_LIC,4616214,6.84,682.0,2017-05-05T10:26:51.000,0,Normal,Severe congestion,12,40.560420,-74.199391,40.551821,-74.217341,40.555730,-74.210451,"40.560420,-74.199391 40.559240,-74.200760 40.558510,-74.201840 40.557900,-74.203061 40.557191,-74.204851 40.556060,-74.209350 40.555730,-74.210451 40.555190,-74.211910 40.554441,-74.213480 40.553690,-74.214801 40.552851,-74.216101 40.551821,-74.217341"
4329481,432,WSE N SOUTH AVENUE - 278 W BRUNSWICK AVENUE,Staten Island,PA - LINCOLN TUNNEL,4329481,6.21,2227.0,2014-12-03T09:54:36.000,0,Normal,Severe congestion,8,40.616880,-74.177310,40.625100,-74.177771,40.623321,-74.175361,"40.616880,-74.177310 40.618900,-74.176040 40.620450,-74.175370 40.621900,-74.175190 40.623321,-74.175361 40.624060,-74.175860 40.624560,-74.176680 40.625100,-74.177771"
4616215,433,WSE N TYRELLAN AVENUE - BLOOMINGDALE ROAD,Staten Island,NYC_DOT_LIC,4616215,6.84,1054.0,2017-05-05T10:26:51.000,0,Normal,Severe congestion,10,40.525610,-74.230390,40.548310,-74.220590,40.539310,-74.224180,"40.525610,-74.230390 40.525871,-74.226180 40.526360,-74.223360 40.527340,-74.223380 40.537100,-74.224300 40.539310,-74.224180 40.540780,-74.223981 40.544370,-74.222830 40.546600,-74.221720 40.548310,-74.220590"
4616212,434,WSE N VICTORY BLVD - SOUTH AVENUE,Staten Island,NYC_DOT_LIC,4616212,6.84,403.0,2017-05-05T10:26:51.000,0,Normal,Severe congestion,6,40.602090,-74.187700,40.590200,-74.193320,40.592071,-74.193131,"40.602090,-74.187700 40.600331,-74.189430 40.597830,-74.190990 40.592071,-74.193131 40.590740,-74.193330 40.590200,-74.193320"
4616198,435,WSE N-SIE E SOUTH AVENUE - SOUTH AVENUE,Staten Island,NYC_DOT_LIC,4616198,37.9,142.0,2017-01-07T19:08:40.000,0,Normal,Free flow,10,40.621020,-74.168861,40.602090,-74.187711,40.618860,-74.175970,"40.621020,-74.168861 40.621230,-74.169920 40.621230,-74.170961 40.620631,-74.173561 40.619710,-74.175091 40.618860,-74.175970 40.616930,-74.177300 40.606850,-74.183361 40.604370,-74.185310 40.602090,-74.187711"
4616202,436,WSE S ARDEN AVENUE - BLOOMINGDALE ROAD,Staten Island,NYC_DOT_LIC,4616202,57.17,82.0,2016-10-31T11:15:35.000,0,Normal,Free flow,12,40.560580,-74.199581,40.551870,-74.217650,40.555890,-74.210551,"40.560580,-74.199581 40.559260,-74.201130 40.558491,-74.202351 40.557890,-74.203630 40.557380,-74.204960 40.556161,-74.209741 40.555890,-74.210551 40.555160,-74.212471 40.554430,-74.213991 40.553860,-74.215000 40.552910,-74.216350 40.551870,-74.217650"
4616203,437,WSE S BLLOMINGDALE ROAD - TYRELLAN AVENUE,Staten Island,NYC_DOT_LIC,4616203,57.17,115.0,2016-10-31T11:15:35.000,0,Normal,Free flow,13,40.525810,-74.230390,40.545890,-74.222410,40.530950,-74.224320,"40.525810,-74.230390 40.525930,-74.228371 40.526110,-74.227450 40.526530,-74.226761 40.527120,-74.226401 40.529101,-74.225740 40.530950,-74.224320 40.531880,-74.224090 40.536891,-74.224580 40.538850,-74.224500 40.541800,-74.224050 40.543790,-74.223380 40.545890,-74.222410"
4616200,439,WSE S SOUTH AVENUE - VICTORY BOULEVARD,Staten Island,NYC_DOT_LIC,4616200,57.17,54.0,2016-10-31T11:15:35.000,0,Normal,Free flow,7,40.590050,-74.193560,40.602130,-74.187981,40.598400,-74.190990,"40.590050,-74.193560 40.591410,-74.193520 40.594130,-74.192660 40.598400,-74.190990 40.599780,-74.190140 40.601390,-74.188741 40.602130,-74.187981"
4329483,440,WSE S TYRELLAN AVENUE - 440 S FRANCIS STREET,Staten Island,NYC_DOT_LIC,4329483,37.9,191.0,2017-05-05T09:28:48.000,0,Normal,Free flow,12,40.526450,-74.270010,40.525311,-74.237981,40.524320,-74.254681,"40.526450,-74.270010 40.525680,-74.267851 40.525280,-74.265850 40.524920,-74.262860 40.524621,-74.260011 40.524300,-74.257130 40.524320,-74.254681 40.524390,-74.253171 40.524570,-74.251050 40.525600,-74.243941 40.525140,-74.241270 40.525311,-74.237981"
4616201,441,WSE S VICTORY BOULEVARD - ARDEN AVENUE,Staten Island,NYC_DOT_LIC,4616201,57.17,136.0,2016-10-31T11:15:35.000,0,Normal,Free flow,9,40.560580,-74.199581,40.589980,-74.193560,40.573710,-74.190041,"40.560580,-74.199581 40.568141,-74.192011 40.570080,-74.190751 40.571991,-74.190150 40.573710,-74.190041 40.575120,-74.190290 40.576331,-74.190571 40.577700,-74.190880 40.589980,-74.193560"
4616204,419,VNB W-SIE W SI GANTRY UPPER LEVEL - FINGERBOARD ROAD,Staten island,NYC_DOT_LIC,4616204,37.28,83.0,2017-05-05T10:26:51.000,0,Normal,Free flow,12,40.604181,-74.052300,40.602900,-74.065340,40.601870,-74.060121,"40.604181,-74.052300 40.603760,-74.053560 40.603441,-74.054590 40.603081,-74.055681 40.602240,-74.058241 40.601990,-74.059121 40.601870,-74.060121 40.601930,-74.060961 40.602080,-74.062020 40.602330,-74.063100 40.602660,-74.064411 40.602900,-74.065340"
